{
    "_id": ObjectId("58cd20a28eab4f58274284af"),
    "name": "set1",
    "lat": 10.729463,
    "lng": 106.695321,
    "city": "Hồ Chí Minh",
    "district": "Quận 7"
}
{
    "_id": ObjectId("58cd20a28eab4f58274284b0"),
    "name": "set2",
    "lat": 10.776704,
    "lng": 106.698239,
    "city": "Hồ Chí Minh",
    "district": "Quận 7"
}
{
    "_id": ObjectId("58cfe9637dbe2538f7bf038f"),
    "name": "set3",
    "lat": 10.729463,
    "lng": 106.695322,
    "city": "Hồ Chí Minh",
    "district": "Quận 7"
}
{
    "_id": ObjectId("58d937f23186a23a21d43ab6"),
    "name": "set4",
    "lat": 10.776704,
    "lng": 106.698239,
    "city": "Hồ Chí Minh",
    "district": "Quận 1"
}
{
    "_id": ObjectId("58e9faa447eecf04f16f1961"),
    "name": "set5",
    "lat": 10.776704,
    "lng": 106.698239,
    "city": "Hồ Chí Minh",
    "district": "Gò Vấp"
}
{
    "_id": ObjectId("58ea01c847eecf04f16f1b72"),
    "name": "set6",
    "lat": 10.776704,
    "lng": 106.698239,
    "city": "Hồ Chí Minh",
    "district": "Tân Phú"
}
{
    "_id": ObjectId("58ea01c847eecf04f16f1b74"),
    "name": "set6",
    "lat": 10.776704,
    "lng": 106.698239,
    "city": "Hồ Chí Minh",
    "district": "Gò Vấp"
}
{
    "_id": ObjectId("58ea01c847eecf04f16f1b76"),
    "name": "set6",
    "lat": 10.776704,
    "lng": 106.698239,
    "city": "Hồ Chí Minh",
    "district": "Gò Vấp"
}